{
"type": "FeatureCollection",
"name": "campStationLocations",
"crs": { "type": "name", "properties": { "name": "urn:ogc:def:crs:OGC:1.3:CRS84" } },
"features": [
{ "type": "Feature", "properties": { "X": -7.9375, "Y": 55.051389, "stno": 8185, "location": "GLENVEAGH NATIONAL PARK", "countyno": 26, "County": "Donegal", "catchmentno": 44, "catchment": "Sheep Haven", "river": "Owencarrow", "elevation": 52, "grid_ref": "C040227", "grid_box": "C", "easting": 204040, "northing": 422655, "open_date": "11/08/2020 00:00", "close_date": null }, "geometry": { "type": "Point", "coordinates": [ -7.9375, 55.051389 ] } },
{ "type": "Feature", "properties": { "X": -7.348056, "Y": 55.150833, "stno": 8285, "location": "ILLIES WTP", "countyno": 26, "County": "Donegal", "catchmentno": 43, "catchment": "Lough Swilly", "river": "Crana", "elevation": 152, "grid_ref": "C416339", "grid_box": "C", "easting": 241620, "northing": 433920, "open_date": "10/08/2020 00:00", "close_date": null }, "geometry": { "type": "Point", "coordinates": [ -7.348056, 55.150833 ] } },
{ "type": "Feature", "properties": { "X": -7.865, "Y": 54.7675, "stno": 5085, "location": "LOUGH MOURNE WTP", "countyno": 26, "County": "Donegal", "catchmentno": 42, "catchment": "Finn-Foyle", "river": "Lough Mourne", "elevation": 158, "grid_ref": "H87910", "grid_box": "H", "easting": 208730, "northing": 391080, "open_date": "17/09/2019 00:00", "close_date": null }, "geometry": { "type": "Point", "coordinates": [ -7.865, 54.7675 ] } },
{ "type": "Feature", "properties": { "X": -7.598889, "Y": 54.849722, "stno": 5185, "location": "RAPHOE (Tops)", "countyno": 26, "County": "Donegal", "catchmentno": 42, "catchment": "Finn-Foyle", "river": "Deele", "elevation": 100, "grid_ref": "C2582", "grid_box": "C", "easting": 225805, "northing": 400285, "open_date": "19/09/2019 00:00", "close_date": null }, "geometry": { "type": "Point", "coordinates": [ -7.598889, 54.849722 ] } },
{ "type": "Feature", "properties": { "X": -8.420278, "Y": 54.769722, "stno": 4885, "location": "ARDARA WWTP", "countyno": 26, "County": "Donegal", "catchmentno": 41, "catchment": "Gweebarra", "river": "Owenea", "elevation": 13, "grid_ref": "G730914", "grid_box": "G", "easting": 173005, "northing": 391405, "open_date": "17/09/2019 00:00", "close_date": null }, "geometry": { "type": "Point", "coordinates": [ -8.420278, 54.769722 ] } },
{ "type": "Feature", "properties": { "X": -8.230278, "Y": 55.049167, "stno": 4985, "location": "GWEEDORE WEIR", "countyno": 26, "County": "Donegal", "catchmentno": 41, "catchment": "Gweebarra", "river": "Clady", "elevation": 56, "grid_ref": "B853224", "grid_box": "B", "easting": 185330, "northing": 422430, "open_date": "18/09/2019 00:00", "close_date": null }, "geometry": { "type": "Point", "coordinates": [ -8.230278, 55.049167 ] } },
{ "type": "Feature", "properties": { "X": -6.955833, "Y": 54.336667, "stno": 685, "location": "EMYVALE WWTP", "countyno": 25, "County": "Monaghan", "catchmentno": 39, "catchment": "Blackwater", "river": "Mountain Water", "elevation": 58, "grid_ref": "H679436", "grid_box": "H", "easting": 267960, "northing": 343600, "open_date": "30/10/2017 00:00", "close_date": null }, "geometry": { "type": "Point", "coordinates": [ -6.955833, 54.336667 ] } },
{ "type": "Feature", "properties": { "X": -6.569444, "Y": 53.853611, "stno": 485, "location": "ARDEE (Bohernamoe)", "countyno": 17, "County": "Louth", "catchmentno": 38, "catchment": "Dundalk Bay and Carlingford Lough", "river": "Dee", "elevation": 34, "grid_ref": "N941902", "grid_box": "N", "easting": 294180, "northing": 290285, "open_date": "03/11/2017 00:00", "close_date": null }, "geometry": { "type": "Point", "coordinates": [ -6.569444, 53.853611 ] } },
{ "type": "Feature", "properties": { "X": -6.351667, "Y": 54.051944, "stno": 585, "location": "DUNDALK (Annaskeagh)", "countyno": 17, "County": "Louth", "catchmentno": 38, "catchment": "Dundalk Bay and Carlingford Lough", "river": "Flurry", "elevation": 61, "grid_ref": "J80126", "grid_box": "J", "easting": 308010, "northing": 312665, "open_date": "02/11/2017 00:00", "close_date": null }, "geometry": { "type": "Point", "coordinates": [ -6.351667, 54.051944 ] } },
{ "type": "Feature", "properties": { "X": -6.885278, "Y": 54.072778, "stno": 785, "location": "KILKIT WTP", "countyno": 25, "County": "Monaghan", "catchmentno": 37, "catchment": "Erne", "river": "Annagh", "elevation": 229, "grid_ref": "H730142", "grid_box": "H", "easting": 273030, "northing": 314295, "open_date": "01/11/2017 00:00", "close_date": null }, "geometry": { "type": "Point", "coordinates": [ -6.885278, 54.072778 ] } },
{ "type": "Feature", "properties": { "X": -7.804167, "Y": 54.058333, "stno": 5385, "location": "BALLINAMORE", "countyno": 23, "County": "Leitrim", "catchmentno": 37, "catchment": "Erne", "river": "Ballinamore_canal", "elevation": 82, "grid_ref": "H128121", "grid_box": "H", "easting": 212880, "northing": 312130, "open_date": "06/11/2019 00:00", "close_date": null }, "geometry": { "type": "Point", "coordinates": [ -7.804167, 54.058333 ] } },
{ "type": "Feature", "properties": { "X": -7.423056, "Y": 53.833333, "stno": 5885, "location": "KILCOGY WWTP", "countyno": 24, "County": "Cavan", "catchmentno": 37, "catchment": "Erne", "river": "stream_lough_gowna", "elevation": 94, "grid_ref": "N380872", "grid_box": "N", "easting": 238030, "northing": 287225, "open_date": "06/11/2019 00:00", "close_date": null }, "geometry": { "type": "Point", "coordinates": [ -7.423056, 53.833333 ] } },
{ "type": "Feature", "properties": { "X": -7.916667, "Y": 54.288889, "stno": 7985, "location": "LOUGHAN HOUSE", "countyno": 24, "County": "Cavan", "catchmentno": 37, "catchment": "Erne", "river": "Lough_Macnean", "elevation": 73, "grid_ref": "H055338", "grid_box": "H", "easting": 205480, "northing": 337795, "open_date": "10/09/2020 00:00", "close_date": null }, "geometry": { "type": "Point", "coordinates": [ -7.916667, 54.288889 ] } },
{ "type": "Feature", "properties": { "X": -8.154167, "Y": 54.491944, "stno": 8085, "location": "BALLYSHANNON (Cherrymount)", "countyno": 26, "County": "Donegal", "catchmentno": 37, "catchment": "Erne", "river": "LOUGH ERNE", "elevation": 30, "grid_ref": "G900604", "grid_box": "G", "easting": 190065, "northing": 360410, "open_date": "07/08/2020 00:00", "close_date": null }, "geometry": { "type": "Point", "coordinates": [ -8.154167, 54.491944 ] } },
{ "type": "Feature", "properties": { "X": -8.598611, "Y": 54.279444, "stno": 5285, "location": "SLIGO AIRPORT", "countyno": 22, "County": "Sligo", "catchmentno": 36, "catchment": "Sligo Bay", "river": "Coastal", "elevation": 10, "grid_ref": "G610368", "grid_box": "G", "easting": 161050, "northing": 336895, "open_date": "16/09/2019 00:00", "close_date": null }, "geometry": { "type": "Point", "coordinates": [ -8.598611, 54.279444 ] } },
{ "type": "Feature", "properties": { "X": -8.866944, "Y": 54.207778, "stno": 7885, "location": "LOUGH EASKEY WTP", "countyno": 22, "County": "Sligo", "catchmentno": 36, "catchment": "Sligo Bay", "river": "Buncrowey", "elevation": 135, "grid_ref": "G435291", "grid_box": "G", "easting": 143475, "northing": 329115, "open_date": "06/08/2020 00:00", "close_date": null }, "geometry": { "type": "Point", "coordinates": [ -8.866944, 54.207778 ] } },
{ "type": "Feature", "properties": { "X": -9.568611, "Y": 54.309722, "stno": 4485, "location": "BELDERRIG", "countyno": 21, "County": "Mayo", "catchmentno": 35, "catchment": "Moy and North Mayo", "river": "Coastal", "elevation": 75, "grid_ref": "F979412", "grid_box": "F", "easting": 97945, "northing": 341235, "open_date": "03/08/2019 00:00", "close_date": null }, "geometry": { "type": "Point", "coordinates": [ -9.568611, 54.309722 ] } },
{ "type": "Feature", "properties": { "X": -9.228333, "Y": 54.187778, "stno": 4585, "location": "LISGLENNON WTP", "countyno": 21, "County": "Mayo", "catchmentno": 35, "catchment": "Moy and North Mayo", "river": "Stream", "elevation": 60, "grid_ref": "G198272", "grid_box": "G", "easting": 119860, "northing": 327240, "open_date": "06/08/2019 00:00", "close_date": null }, "geometry": { "type": "Point", "coordinates": [ -9.228333, 54.187778 ] } },
{ "type": "Feature", "properties": { "X": -9.126389, "Y": 53.925, "stno": 4685, "location": "STRAIDE", "countyno": 21, "County": "Mayo", "catchmentno": 35, "catchment": "Moy and North Mayo", "river": "Straide", "elevation": 21, "grid_ref": "M260978", "grid_box": "M", "easting": 126050, "northing": 297880, "open_date": "06/08/2019 00:00", "close_date": null }, "geometry": { "type": "Point", "coordinates": [ -9.126389, 53.925 ] } },
{ "type": "Feature", "properties": { "X": -9.8425, "Y": 54.057222, "stno": 4385, "location": "BALLYCROY", "countyno": 21, "County": "Mayo", "catchmentno": 34, "catchment": "Blacksod Bay", "river": "Owenduff", "elevation": 107, "grid_ref": "F793135", "grid_box": "F", "easting": 79395, "northing": 313555, "open_date": "31/07/2019 00:00", "close_date": null }, "geometry": { "type": "Point", "coordinates": [ -9.8425, 54.057222 ] } },
{ "type": "Feature", "properties": { "X": -9.748333, "Y": 54.141389, "stno": 7785, "location": "BANGOR ERRIS WWTP", "countyno": 21, "County": "Mayo", "catchmentno": 34, "catchment": "Blacksod Bay", "river": "OWENINY", "elevation": 20, "grid_ref": "F858228", "grid_box": "F", "easting": 85745, "northing": 322730, "open_date": "01/02/2022 00:00", "close_date": null }, "geometry": { "type": "Point", "coordinates": [ -9.748333, 54.141389 ] } },
{ "type": "Feature", "properties": { "X": -6.715833, "Y": 53.698889, "stno": 885, "location": "NAVAN (Randalstown)", "countyno": 15, "County": "Meath", "catchmentno": 31, "catchment": "Boyne", "river": "An Abhainn Bhui", "elevation": 55, "grid_ref": "N848728", "grid_box": "N", "easting": 284860, "northing": 272875, "open_date": "09/11/2017 00:00", "close_date": null }, "geometry": { "type": "Point", "coordinates": [ -6.715833, 53.698889 ] } },
{ "type": "Feature", "properties": { "X": -8.326944, "Y": 53.9425, "stno": 5585, "location": "BALLYMORE", "countyno": 20, "County": "Roscommon", "catchmentno": 29, "catchment": "Shannon (Upper)", "river": "Stream_lough_gara", "elevation": 120, "grid_ref": "M785992", "grid_box": "M", "easting": 178580, "northing": 299265, "open_date": "11/11/2019 00:00", "close_date": null }, "geometry": { "type": "Point", "coordinates": [ -8.326944, 53.9425 ] } },
{ "type": "Feature", "properties": { "X": -7.986667, "Y": 53.326111, "stno": 5685, "location": "CLONMACNOISE", "countyno": 12, "County": "Offaly", "catchmentno": 29, "catchment": "Shannon (Upper)", "river": "Shannon", "elevation": 46, "grid_ref": "N9306", "grid_box": "N", "easting": 200930, "northing": 230635, "open_date": "01/10/2018 00:00", "close_date": null }, "geometry": { "type": "Point", "coordinates": [ -7.986667, 53.326111 ] } },
{ "type": "Feature", "properties": { "X": -8.190278, "Y": 53.616944, "stno": 7585, "location": "ROSCOMMON WWTP", "countyno": 20, "County": "Roscommon", "catchmentno": 29, "catchment": "Shannon (Upper)", "river": "Hind", "elevation": 60, "grid_ref": "M875630", "grid_box": "M", "easting": 187460, "northing": 262995, "open_date": "05/08/2020 00:00", "close_date": null }, "geometry": { "type": "Point", "coordinates": [ -8.190278, 53.616944 ] } },
{ "type": "Feature", "properties": { "X": -8.495556, "Y": 53.756944, "stno": 1885, "location": "CASTLEREA WWTP", "countyno": 20, "County": "Roscommon", "catchmentno": 28, "catchment": "Suck", "river": "Suck", "elevation": 69, "grid_ref": "M673787", "grid_box": "M", "easting": 167370, "northing": 278700, "open_date": "12/11/2019 00:00", "close_date": null }, "geometry": { "type": "Point", "coordinates": [ -8.495556, 53.756944 ] } },
{ "type": "Feature", "properties": { "X": -8.493333, "Y": 53.468611, "stno": 5485, "location": "MOUNTBELLEW (Agr Coll)", "countyno": 19, "County": "Galway", "catchmentno": 28, "catchment": "Suck", "river": "Shiven", "elevation": 66, "grid_ref": "M672465", "grid_box": "M", "easting": 167290, "northing": 246590, "open_date": "12/11/2019 00:00", "close_date": null }, "geometry": { "type": "Point", "coordinates": [ -8.493333, 53.468611 ] } },
{ "type": "Feature", "properties": { "X": -9.055556, "Y": 53.286111, "stno": 4085, "location": "TERRYLAND WTP", "countyno": 19, "County": "Galway", "catchmentno": 27, "catchment": "Corrib", "river": "Corrib", "elevation": 16, "grid_ref": "M296266", "grid_box": "M", "easting": 129655, "northing": 226705, "open_date": "03/10/2018 00:00", "close_date": null }, "geometry": { "type": "Point", "coordinates": [ -9.055556, 53.286111 ] } },
{ "type": "Feature", "properties": { "X": -9.608611, "Y": 53.536944, "stno": 4185, "location": "MAAM VALLEY", "countyno": 19, "County": "Galway", "catchmentno": 27, "catchment": "Corrib", "river": "Joyce", "elevation": 58, "grid_ref": "L933552", "grid_box": "L", "easting": 93395, "northing": 255290, "open_date": "05/10/2018 00:00", "close_date": null }, "geometry": { "type": "Point", "coordinates": [ -9.608611, 53.536944 ] } },
{ "type": "Feature", "properties": { "X": -8.880556, "Y": 53.515278, "stno": 4285, "location": "TUAM WWTP", "countyno": 19, "County": "Galway", "catchmentno": 27, "catchment": "Corrib", "river": "Clare", "elevation": 58, "grid_ref": "M416520", "grid_box": "M", "easting": 141645, "northing": 252035, "open_date": "31/07/2019 00:00", "close_date": null }, "geometry": { "type": "Point", "coordinates": [ -8.880556, 53.515278 ] } },
{ "type": "Feature", "properties": { "X": -9.371944, "Y": 53.681111, "stno": 4785, "location": "TOURMAKEADY WTP", "countyno": 21, "County": "Mayo", "catchmentno": 27, "catchment": "Corrib", "river": "Stream", "elevation": 140, "grid_ref": "M93710", "grid_box": "M", "easting": 109390, "northing": 271000, "open_date": "31/07/2019 00:00", "close_date": null }, "geometry": { "type": "Point", "coordinates": [ -9.371944, 53.681111 ] } },
{ "type": "Feature", "properties": { "X": -9.942222, "Y": 53.551111, "stno": 3985, "location": "CONNEMARA NATIONAL PARK", "countyno": 19, "County": "Galway", "catchmentno": 26, "catchment": "Erriff", "river": "Stream-Owengarve", "elevation": 58, "grid_ref": "L713574", "grid_box": "L", "easting": 71330, "northing": 257425, "open_date": "02/10/2018 00:00", "close_date": null }, "geometry": { "type": "Point", "coordinates": [ -9.942222, 53.551111 ] } },
{ "type": "Feature", "properties": { "X": -9.745278, "Y": 53.645278, "stno": 7685, "location": "DOO LOUGH", "countyno": 21, "County": "Mayo", "catchmentno": 26, "catchment": "Erriff", "river": "DOO LOUGH", "elevation": 35, "grid_ref": "L846676", "grid_box": "L", "easting": 84635, "northing": 267560, "open_date": "06/09/2022 00:00", "close_date": null }, "geometry": { "type": "Point", "coordinates": [ -9.745278, 53.645278 ] } },
{ "type": "Feature", "properties": { "X": -9.339722, "Y": 53.359722, "stno": 3885, "location": "CLOOSH (Forest Station)", "countyno": 19, "County": "Galway", "catchmentno": 25, "catchment": "Galway Bay (North)", "river": "Owenboliska", "elevation": 101, "grid_ref": "M108352", "grid_box": "M", "easting": 110845, "northing": 235210, "open_date": "25/10/2018 00:00", "close_date": null }, "geometry": { "type": "Point", "coordinates": [ -9.339722, 53.359722 ] } },
{ "type": "Feature", "properties": { "X": -6.075278, "Y": 53.025, "stno": 1585, "location": "ASHFORD (Cronykeery)", "countyno": 9, "County": "Wicklow", "catchmentno": 24, "catchment": "Vartry", "river": "Coastal", "elevation": 15, "grid_ref": "T291988", "grid_box": "T", "easting": 329185, "northing": 198840, "open_date": "26/06/2018 00:00", "close_date": null }, "geometry": { "type": "Point", "coordinates": [ -6.075278, 53.025 ] } },
{ "type": "Feature", "properties": { "X": -6.130556, "Y": 52.834167, "stno": 1785, "location": "ARKLOW (Ballyrichard House)", "countyno": 9, "County": "Wicklow", "catchmentno": 24, "catchment": "Vartry", "river": "Coastal", "elevation": 70, "grid_ref": "T260775", "grid_box": "T", "easting": 326035, "northing": 177510, "open_date": "26/06/2018 00:00", "close_date": null }, "geometry": { "type": "Point", "coordinates": [ -6.130556, 52.834167 ] } },
{ "type": "Feature", "properties": { "X": -6.115278, "Y": 53.245278, "stno": 6185, "location": "SHANGANAGH WWTP", "countyno": 14, "County": "Dublin", "catchmentno": 24, "catchment": "Vartry", "river": "Coastal", "elevation": 25, "grid_ref": "O258232", "grid_box": "O", "easting": 325860, "northing": 223270, "open_date": "27/06/2018 00:00", "close_date": null }, "geometry": { "type": "Point", "coordinates": [ -6.115278, 53.245278 ] } },
{ "type": "Feature", "properties": { "X": -6.270278, "Y": 53.369722, "stno": 5985, "location": "DUBLIN (Glasnevin)", "countyno": 14, "County": "Dublin", "catchmentno": 23, "catchment": "Liffey and Dublin Bay", "river": "Tolka", "elevation": 21, "grid_ref": "O151369", "grid_box": "O", "easting": 315175, "northing": 236910, "open_date": "27/06/2018 00:00", "close_date": null }, "geometry": { "type": "Point", "coordinates": [ -6.270278, 53.369722 ] } },
{ "type": "Feature", "properties": { "X": -8.600278, "Y": 53.066389, "stno": 3685, "location": "GORT (Derrybrien)", "countyno": 19, "County": "Galway", "catchmentno": 21, "catchment": "Galway Bay (South)", "river": "Feale", "elevation": 58, "grid_ref": "M59818", "grid_box": "M", "easting": 159800, "northing": 201890, "open_date": "01/07/2019 00:00", "close_date": null }, "geometry": { "type": "Point", "coordinates": [ -8.600278, 53.066389 ] } },
{ "type": "Feature", "properties": { "X": -8.203333, "Y": 52.508056, "stno": 2285, "location": "LIMERICK JUNCTION", "countyno": 4, "County": "Tipperary", "catchmentno": 19, "catchment": "Shannon Middle", "river": "Stream-Popes River", "elevation": 96, "grid_ref": "R862395", "grid_box": "R", "easting": 186250, "northing": 139590, "open_date": "27/11/2018 00:00", "close_date": null }, "geometry": { "type": "Point", "coordinates": [ -8.203333, 52.508056 ] } },
{ "type": "Feature", "properties": { "X": -8.528611, "Y": 52.701944, "stno": 3485, "location": "CLAREVILLE WTP", "countyno": 5, "County": "Limerick", "catchmentno": 19, "catchment": "Shannon Middle", "river": "Shannon", "elevation": 17, "grid_ref": "R643613", "grid_box": "R", "easting": 164310, "northing": 161305, "open_date": "03/07/2019 00:00", "close_date": null }, "geometry": { "type": "Point", "coordinates": [ -8.528611, 52.701944 ] } },
{ "type": "Feature", "properties": { "X": -9.0775, "Y": 53.030278, "stno": 3385, "location": "CARRON", "countyno": 6, "County": "Clare", "catchmentno": 18, "catchment": "Fergus", "river": "Castletown", "elevation": 131, "grid_ref": "R277982", "grid_box": "R", "easting": 127755, "northing": 198250, "open_date": "01/07/2019 00:00", "close_date": null }, "geometry": { "type": "Point", "coordinates": [ -9.0775, 53.030278 ] } },
{ "type": "Feature", "properties": { "X": -9.238333, "Y": 52.841667, "stno": 3785, "location": "INAGH (Mount Callan)", "countyno": 6, "County": "Clare", "catchmentno": 17, "catchment": "Mal Bay", "river": "Inagh", "elevation": 107, "grid_ref": "R166774", "grid_box": "R", "easting": 116605, "northing": 177420, "open_date": "02/07/2019 00:00", "close_date": null }, "geometry": { "type": "Point", "coordinates": [ -9.238333, 52.841667 ] } },
{ "type": "Feature", "properties": { "X": -6.209444, "Y": 52.5625, "stno": 6985, "location": "CAHORE (Kilmichael)", "countyno": 7, "County": "Wexford", "catchmentno": 16, "catchment": "Owenaverragh", "river": "Coastal", "elevation": 10, "grid_ref": "T214471", "grid_box": "T", "easting": 321480, "northing": 147140, "open_date": "25/06/2021 00:00", "close_date": null }, "geometry": { "type": "Point", "coordinates": [ -6.209444, 52.5625 ] } },
{ "type": "Feature", "properties": { "X": -6.420556, "Y": 52.357222, "stno": 185, "location": "WEXFORD WILDFOWL RESERVE", "countyno": 7, "County": "Wexford", "catchmentno": 15, "catchment": "Slaney", "river": "Coastal", "elevation": 1, "grid_ref": "T76239", "grid_box": "T", "easting": 307655, "northing": 123980, "open_date": "01/08/2017 00:00", "close_date": null }, "geometry": { "type": "Point", "coordinates": [ -6.420556, 52.357222 ] } },
{ "type": "Feature", "properties": { "X": -6.639444, "Y": 52.644722, "stno": 6285, "location": "BUNCLODY WWTP", "countyno": 7, "County": "Wexford", "catchmentno": 15, "catchment": "Slaney", "river": "SLANEY", "elevation": 34, "grid_ref": "S921556", "grid_box": "S", "easting": 292140, "northing": 155660, "open_date": "30/04/2018 00:00", "close_date": null }, "geometry": { "type": "Point", "coordinates": [ -6.639444, 52.644722 ] } },
{ "type": "Feature", "properties": { "X": -6.940833, "Y": 52.3175, "stno": 285, "location": "JFK PARK", "countyno": 7, "County": "Wexford", "catchmentno": 14, "catchment": "Barrow", "river": "Barrow", "elevation": 70, "grid_ref": "S722198", "grid_box": "S", "easting": 272280, "northing": 118920, "open_date": "01/08/2017 00:00", "close_date": null }, "geometry": { "type": "Point", "coordinates": [ -6.940833, 52.3175 ] } },
{ "type": "Feature", "properties": { "X": -7.3075, "Y": 53.045278, "stno": 1485, "location": "PORTLAOISE WWTP", "countyno": 11, "County": "Laois", "catchmentno": 14, "catchment": "Barrow", "river": "Triogue", "elevation": 91, "grid_ref": "S465996", "grid_box": "S", "easting": 246500, "northing": 199605, "open_date": "25/06/2018 00:00", "close_date": null }, "geometry": { "type": "Point", "coordinates": [ -7.3075, 53.045278 ] } },
{ "type": "Feature", "properties": { "X": -7.145556, "Y": 53.334722, "stno": 1685, "location": "EDENDERRY (Ballinla)", "countyno": 12, "County": "Offaly", "catchmentno": 14, "catchment": "Barrow", "river": "Doden-Barrow", "elevation": 85, "grid_ref": "N569319", "grid_box": "N", "easting": 256980, "northing": 231930, "open_date": "13/11/2019 00:00", "close_date": null }, "geometry": { "type": "Point", "coordinates": [ -7.145556, 53.334722 ] } },
{ "type": "Feature", "properties": { "X": -6.848889, "Y": 53.169167, "stno": 7385, "location": "CURRAGH RACECOURSE", "countyno": 13, "County": "Kildare", "catchmentno": 14, "catchment": "Barrow", "river": "STREAM-BARROW", "elevation": 110, "grid_ref": "N770137", "grid_box": "N", "easting": 277035, "northing": 213770, "open_date": "16/06/2021 00:00", "close_date": null }, "geometry": { "type": "Point", "coordinates": [ -6.848889, 53.169167 ] } },
{ "type": "Feature", "properties": { "X": -7.190556, "Y": 52.525, "stno": 1285, "location": "THOMASTOWN (Mount Juliet)", "countyno": 8, "County": "Kilkenny", "catchmentno": 13, "catchment": "Nore", "river": "Nore", "elevation": 46, "grid_ref": "S549417", "grid_box": "S", "easting": 254935, "northing": 141785, "open_date": "01/05/2018 00:00", "close_date": null }, "geometry": { "type": "Point", "coordinates": [ -7.190556, 52.525 ] } },
{ "type": "Feature", "properties": { "X": -7.704167, "Y": 52.992778, "stno": 7485, "location": "NEALSTOWN", "countyno": 11, "County": "Laois", "catchmentno": 13, "catchment": "Nore", "river": "TONET_DELOUR", "elevation": 220, "grid_ref": "S199935", "grid_box": "S", "easting": 219910, "northing": 193570, "open_date": "21/06/2021 00:00", "close_date": null }, "geometry": { "type": "Point", "coordinates": [ -7.704167, 52.992778 ] } },
{ "type": "Feature", "properties": { "X": -7.373889, "Y": 52.848056, "stno": 8385, "location": "DURROW (Castlewood)", "countyno": 11, "County": "Laois", "catchmentno": 13, "catchment": "Nore", "river": "ERKINA", "elevation": 88, "grid_ref": "S422775", "grid_box": "S", "easting": 242225, "northing": 177590, "open_date": "22/06/2021 00:00", "close_date": null }, "geometry": { "type": "Point", "coordinates": [ -7.373889, 52.848056 ] } },
{ "type": "Feature", "properties": { "X": -7.313056, "Y": 52.352222, "stno": 1185, "location": "PILTOWN (Kildalton Agri.College)", "countyno": 8, "County": "Kilkenny", "catchmentno": 12, "catchment": "Suir", "river": "Pil", "elevation": 23, "grid_ref": "S468224", "grid_box": "S", "easting": 246855, "northing": 122470, "open_date": "01/05/2018 00:00", "close_date": null }, "geometry": { "type": "Point", "coordinates": [ -7.313056, 52.352222 ] } },
{ "type": "Feature", "properties": { "X": -7.131389, "Y": 52.254167, "stno": 1385, "location": "WATERFORD TYCOR", "countyno": 3, "County": "Waterford", "catchmentno": 12, "catchment": "Suir", "river": "Suir", "elevation": 53, "grid_ref": "S593116", "grid_box": "S", "easting": 259365, "northing": 111690, "open_date": "02/05/2018 00:00", "close_date": null }, "geometry": { "type": "Point", "coordinates": [ -7.131389, 52.254167 ] } },
{ "type": "Feature", "properties": { "X": -7.829167, "Y": 52.458611, "stno": 2085, "location": "CASHEL (Ballydoyle House)", "countyno": 4, "County": "Tipperary", "catchmentno": 12, "catchment": "Suir", "river": "Stream-Suir", "elevation": 125, "grid_ref": "S116340", "grid_box": "S", "easting": 211665, "northing": 134095, "open_date": "26/11/2018 00:00", "close_date": null }, "geometry": { "type": "Point", "coordinates": [ -7.829167, 52.458611 ] } },
{ "type": "Feature", "properties": { "X": -7.832778, "Y": 52.688333, "stno": 2185, "location": "THURLES RACECOURSE", "countyno": 4, "County": "Tipperary", "catchmentno": 12, "catchment": "Suir", "river": "Suir", "elevation": 110, "grid_ref": "S113596", "grid_box": "S", "easting": 211350, "northing": 159665, "open_date": "26/11/2018 00:00", "close_date": null }, "geometry": { "type": "Point", "coordinates": [ -7.832778, 52.688333 ] } },
{ "type": "Feature", "properties": { "X": -7.674722, "Y": 52.358056, "stno": 6885, "location": "CLONMEL WWTP", "countyno": 4, "County": "Tipperary", "catchmentno": 12, "catchment": "Suir", "river": "SUIR", "elevation": 18, "grid_ref": "S222229", "grid_box": "S", "easting": 222205, "northing": 122930, "open_date": "24/06/2021 00:00", "close_date": null }, "geometry": { "type": "Point", "coordinates": [ -7.674722, 52.358056 ] } },
{ "type": "Feature", "properties": { "X": -8.785, "Y": 52.553889, "stno": 1985, "location": "ADARE MANOR", "countyno": 5, "County": "Limerick", "catchmentno": 11, "catchment": "Shannon (Lower)", "river": "Maigue", "elevation": 15, "grid_ref": "R468449", "grid_box": "R", "easting": 146805, "northing": 144965, "open_date": "28/11/2018 00:00", "close_date": null }, "geometry": { "type": "Point", "coordinates": [ -8.785, 52.553889 ] } },
{ "type": "Feature", "properties": { "X": -8.953611, "Y": 52.3525, "stno": 3285, "location": "SPRINGFIELD CASTLE", "countyno": 5, "County": "Limerick", "catchmentno": 11, "catchment": "Shannon (Lower)", "river": "Bunoke", "elevation": 101, "grid_ref": "R350227", "grid_box": "R", "easting": 135070, "northing": 122700, "open_date": "18/04/2019 00:00", "close_date": null }, "geometry": { "type": "Point", "coordinates": [ -8.953611, 52.3525 ] } },
{ "type": "Feature", "properties": { "X": -8.756944, "Y": 52.856111, "stno": 3585, "location": "TULLA WTP", "countyno": 6, "County": "Clare", "catchmentno": 11, "catchment": "Shannon (Lower)", "river": "Stream-Shannon", "elevation": 29, "grid_ref": "R490785", "grid_box": "R", "easting": 149065, "northing": 178575, "open_date": "02/07/2019 00:00", "close_date": null }, "geometry": { "type": "Point", "coordinates": [ -8.756944, 52.856111 ] } },
{ "type": "Feature", "properties": { "X": -9.669722, "Y": 52.490278, "stno": 2885, "location": "BALLYBUNION WWTP", "countyno": 2, "County": "Kerry", "catchmentno": 10, "catchment": "Feale", "river": "Coastal", "elevation": 8, "grid_ref": "Q866389", "grid_box": "Q", "easting": 86630, "northing": 138920, "open_date": "24/04/2019 00:00", "close_date": null }, "geometry": { "type": "Point", "coordinates": [ -9.669722, 52.490278 ] } },
{ "type": "Feature", "properties": { "X": -8.6525, "Y": 52.190556, "stno": 6085, "location": "ABBEYFEALE WWTP", "countyno": 5, "County": "Limerick", "catchmentno": 10, "catchment": "Feale", "river": "Feale", "elevation": 58, "grid_ref": "R55444", "grid_box": "R", "easting": 111026, "northing": 127321, "open_date": "16/03/2020 00:00", "close_date": null }, "geometry": { "type": "Point", "coordinates": [ -8.6525, 52.190556 ] } },
{ "type": "Feature", "properties": { "X": -10.271944, "Y": 52.135, "stno": 6685, "location": "DINGLE WWTP", "countyno": 2, "County": "Kerry", "catchmentno": 9, "catchment": "Tralee Bay", "river": "Coastal", "elevation": 7, "grid_ref": "Q445005", "grid_box": "Q", "easting": 44500, "northing": 100500, "open_date": "16/09/2020 00:00", "close_date": null }, "geometry": { "type": "Point", "coordinates": [ -10.271944, 52.135 ] } },
{ "type": "Feature", "properties": { "X": -7.555, "Y": 52.080556, "stno": 1085, "location": "DUNGARVAN WWTP", "countyno": 3, "County": "Waterford", "catchmentno": 7, "catchment": "Colligan", "river": "Coastal", "elevation": 15, "grid_ref": "X305921", "grid_box": "X", "easting": 230565, "northing": 92120, "open_date": "03/05/2018 00:00", "close_date": null }, "geometry": { "type": "Point", "coordinates": [ -7.555, 52.080556 ] } },
{ "type": "Feature", "properties": { "X": -8.568889, "Y": 52.33, "stno": 2385, "location": "MOUNT RUSSELL", "countyno": 5, "County": "Limerick", "catchmentno": 6, "catchment": "Blackwater", "river": "Glenminnaun", "elevation": 196, "grid_ref": "R612199", "grid_box": "R", "easting": 161275, "northing": 119935, "open_date": "28/11/2018 00:00", "close_date": null }, "geometry": { "type": "Point", "coordinates": [ -8.568889, 52.33 ] } },
{ "type": "Feature", "properties": { "X": -8.6525, "Y": 52.190556, "stno": 3185, "location": "MALLOW (Hazelwood)", "countyno": 1, "County": "Cork", "catchmentno": 6, "catchment": "Blackwater", "river": "Blackwater", "elevation": 110, "grid_ref": "R554045", "grid_box": "R", "easting": 155425, "northing": 104450, "open_date": "19/04/2019 00:00", "close_date": null }, "geometry": { "type": "Point", "coordinates": [ -8.6525, 52.190556 ] } },
{ "type": "Feature", "properties": { "X": -7.856667, "Y": 51.964722, "stno": 6485, "location": "YOUGHAL WWTP", "countyno": 1, "County": "Cork", "catchmentno": 6, "catchment": "Blackwater", "river": "Coastal", "elevation": 0, "grid_ref": "X99791", "grid_box": "X", "easting": 209910, "northing": 79125, "open_date": "23/06/2021 00:00", "close_date": null }, "geometry": { "type": "Point", "coordinates": [ -7.856667, 51.964722 ] } },
{ "type": "Feature", "properties": { "X": -9.058611, "Y": 52.066944, "stno": 6585, "location": "MILLSTREET (Drishane Castle)", "countyno": 1, "County": "Cork", "catchmentno": 6, "catchment": "Blackwater", "river": "Finnow", "elevation": 100, "grid_ref": "W274910", "grid_box": "W", "easting": 127460, "northing": 91020, "open_date": "14/08/2020 00:00", "close_date": null }, "geometry": { "type": "Point", "coordinates": [ -9.058611, 52.066944 ] } },
{ "type": "Feature", "properties": { "X": -9.924722, "Y": 52.085833, "stno": 2985, "location": "DOOKS GOLF CLUB", "countyno": 2, "County": "Kerry", "catchmentno": 5, "catchment": "Dingle Bay", "river": "Coastal", "elevation": 18, "grid_ref": "V681943", "grid_box": "V", "easting": 68115, "northing": 94350, "open_date": "23/04/2019 00:00", "close_date": null }, "geometry": { "type": "Point", "coordinates": [ -9.924722, 52.085833 ] } },
{ "type": "Feature", "properties": { "X": -9.501389, "Y": 52.022222, "stno": 3085, "location": "KILLARNEY (Muckross House)", "countyno": 2, "County": "Kerry", "catchmentno": 5, "catchment": "Dingle Bay", "river": "Lough Leane", "elevation": 29, "grid_ref": "V969865", "grid_box": "V", "easting": 96990, "northing": 86575, "open_date": "23/04/2019 00:00", "close_date": null }, "geometry": { "type": "Point", "coordinates": [ -9.501389, 52.022222 ] } },
{ "type": "Feature", "properties": { "X": -9.875, "Y": 51.944444, "stno": 6385, "location": "CLOONE LAKE", "countyno": 2, "County": "Kerry", "catchmentno": 5, "catchment": "Dingle Bay", "river": "Cloone_lake", "elevation": 105, "grid_ref": "V711785", "grid_box": "V", "easting": 71115, "northing": 78525, "open_date": "17/09/2020 00:00", "close_date": null }, "geometry": { "type": "Point", "coordinates": [ -9.875, 51.944444 ] } },
{ "type": "Feature", "properties": { "X": -9.471944, "Y": 52.229444, "stno": 6785, "location": "CASTLEISLAND WWTP", "countyno": 2, "County": "Kerry", "catchmentno": 5, "catchment": "Dingle Bay", "river": "Maine", "elevation": 26, "grid_ref": "Q995096", "grid_box": "Q", "easting": 99480, "northing": 109615, "open_date": "15/09/2020 00:00", "close_date": null }, "geometry": { "type": "Point", "coordinates": [ -9.471944, 52.229444 ] } },
{ "type": "Feature", "properties": { "X": -8.200556, "Y": 52.010833, "stno": 2485, "location": "BALLINCURRIG (Peafield)", "countyno": 1, "County": "Cork", "catchmentno": 4, "catchment": "Lee-Cork Harbours and Youghal Bay", "river": "Templebodan", "elevation": 161, "grid_ref": "W862842", "grid_box": "W", "easting": 186285, "northing": 84265, "open_date": "02/04/2019 00:00", "close_date": null }, "geometry": { "type": "Point", "coordinates": [ -8.200556, 52.010833 ] } },
{ "type": "Feature", "properties": { "X": -8.670278, "Y": 51.904167, "stno": 2685, "location": "INISHCARRA WTP", "countyno": 1, "County": "Cork", "catchmentno": 4, "catchment": "Lee-Cork Harbours and Youghal Bay", "river": "Lee", "elevation": 110, "grid_ref": "W539725", "grid_box": "W", "easting": 153925, "northing": 72585, "open_date": "03/04/2019 00:00", "close_date": null }, "geometry": { "type": "Point", "coordinates": [ -8.670278, 51.904167 ] } },
{ "type": "Feature", "properties": { "X": -8.851111, "Y": 51.626111, "stno": 2585, "location": "CLONAKILTY (Agri. College)", "countyno": 1, "County": "Cork", "catchmentno": 2, "catchment": "Bandon", "river": "Ring-Harbour", "elevation": 46, "grid_ref": "W411417", "grid_box": "W", "easting": 141110, "northing": 41785, "open_date": "03/04/2019 00:00", "close_date": null }, "geometry": { "type": "Point", "coordinates": [ -8.851111, 51.626111 ] } },
{ "type": "Feature", "properties": { "X": -9.100278, "Y": 51.721111, "stno": 2785, "location": "DUNMANWAY WWTP", "countyno": 1, "County": "Cork", "catchmentno": 2, "catchment": "Bandon", "river": "Bandon", "elevation": 59, "grid_ref": "W240525", "grid_box": "W", "easting": 124010, "northing": 52590, "open_date": "03/04/2019 00:00", "close_date": null }, "geometry": { "type": "Point", "coordinates": [ -9.100278, 51.721111 ] } },
{ "type": "Feature", "properties": { "X": -9.544444, "Y": 51.736389, "stno": 5785, "location": "GLENGARRIFF (Ilnacullin)", "countyno": 1, "County": "Cork", "catchmentno": 1, "catchment": "Bantry and Dunmanus Bays", "river": "Coastal", "elevation": 15, "grid_ref": "V934549", "grid_box": "V", "easting": 93350, "northing": 54855, "open_date": "17/03/2020 00:00", "close_date": null }, "geometry": { "type": "Point", "coordinates": [ -9.544444, 51.736389 ] } }
]
}
